[
  {
    "id": 1,
    "shelter_name": "Dewan Serbaguna Taman Kota Jaya",
    "location": "Kota Tinggi, Johor",
    "latitude": 1.73779,
    "longitude": 103.89128,
    "benefits": [
      "Large hall (~800 capacity)",
      "Sanitary facilities"
    ],
    "drawbacks": [
      "May be used for events (availability varies)"
    ],
    "friendly_tags": [
      "family_friendly",
      "accessible"
    ]
  },
  {
    "id": 2,
    "shelter_name": "Dewan Jubli Intan Sultan Ibrahim",
    "location": "Kota Tinggi, Johor",
    "latitude": 1.73213,
    "longitude": 103.86844,
    "benefits": [
      "Large community hall",
      "Central location in Kota Tinggi"
    ],
    "drawbacks": [
      "Can be crowded during major events"
    ],
    "friendly_tags": [
      "family_friendly"
    ]
  },
  {
    "id": 3,
    "shelter_name": "Kolej Vokasional Kota Tinggi (used as PPS)",
    "location": "Kota Tinggi, Johor",
    "latitude": 1.73545,
    "longitude": 103.88292,
    "benefits": [
      "School facilities (classrooms)",
      "Cooking/electric supply available"
    ],
    "drawbacks": [
      "Not primarily a shelter (school schedule may affect usage)"
    ],
    "friendly_tags": [
      "family_friendly",
      "accessible"
    ]
  },
  {
    "id": 4,
    "shelter_name": "Dewan Serbaguna Bandar Penawar",
    "location": "Pengerang, Kota Tinggi, Johor",
    "latitude": 1.42692,
    "longitude": 104.1812,
    "benefits": [
      "Community hall",
      "Indoor space"
    ],
    "drawbacks": [
      "Limited parking"
    ],
    "friendly_tags": [
      "family_friendly"
    ]
  },
  {
    "id": 5,
    "shelter_name": "Dewan Tun Ahmad",
    "location": "Kuantan, Pahang",
    "latitude": 3.8079,
    "longitude": 103.3265,
    "benefits": [
      "Large indoor hall",
      "Near main town facilities"
    ],
    "drawbacks": [
      "Can be crowded during large floods"
    ],
    "friendly_tags": [
      "family_friendly",
      "accessible"
    ]
  },
  {
    "id": 6,
    "shelter_name": "Sekolah Kebangsaan Jalan Resak (used as PPS)",
    "location": "Kuantan, Pahang",
    "latitude": 3.80645,
    "longitude": 103.33214,
    "benefits": [
      "Classrooms for temporary shelter",
      "Toilets and water supply"
    ],
    "drawbacks": [
      "School premises (availability when in-session)"
    ],
    "friendly_tags": [
      "family_friendly"
    ]
  },
  {
    "id": 7,
    "shelter_name": "Dewan Orang Ramai Taman Sri Muda",
    "location": "Shah Alam / Klang River vicinity, Selangor",
    "latitude": 3.0012,
    "longitude": 101.4678,
    "benefits": [
      "Community hall used as PPS during Selangor floods",
      "Close to affected residential areas"
    ],
    "drawbacks": [
      "Subject to availability"
    ],
    "friendly_tags": [
      "family_friendly"
    ]
  },
  {
    "id": 8,
    "shelter_name": "Dewan Serbaguna Taman Kenangan",
    "location": "Kuala Terengganu, Terengganu",
    "latitude": 5.3201,
    "longitude": 103.1224,
    "benefits": [
      "Indoor hall",
      "Used in past as PPS"
    ],
    "drawbacks": [
      "Limited capacity"
    ],
    "friendly_tags": [
      "family_friendly"
    ]
  },
  {
    "id": 9,
    "shelter_name": "Dewan Serbaguna Kampung Baru Pasir Mas",
    "location": "Pasir Mas, Kelantan",
    "latitude": 6.0437,
    "longitude": 102.1589,
    "benefits": [
      "Community hall",
      "Near local amenities"
    ],
    "drawbacks": [
      "May have limited toilet facilities"
    ],
    "friendly_tags": [
      "family_friendly"
    ]
  },
  {
    "id": 10,
    "shelter_name": "Dewan Serbaguna Taman Kota Laksamana",
    "location": "Malacca City, Melaka",
    "latitude": 2.1977,
    "longitude": 102.2455,
    "benefits": [
      "Large hall",
      "Close to town services"
    ],
    "drawbacks": [
      "May be used for events"
    ],
    "friendly_tags": [
      "family_friendly",
      "accessible"
    ]
  },
  {
    "id": 11,
    "shelter_name": "Dewan Serbaguna Kampung Baru (PPS)",
    "location": "Kuala Lumpur (Lembah Klang vicinity)",
    "latitude": 3.1390,
    "longitude": 101.6869,
    "benefits": [
      "Central urban hall",
      "Accessible by major roads"
    ],
    "drawbacks": [
      "Can be congested"
    ],
    "friendly_tags": [
      "family_friendly"
    ]
  },
  {
    "id": 12,
    "shelter_name": "Dewan Kelab Sultan Sulaiman",
    "location": "Kuala Lumpur",
    "latitude": 3.1500,
    "longitude": 101.6950,
    "benefits": [
      "Indoor hall",
      "Used previously as PPS"
    ],
    "drawbacks": [
      "Limited parking"
    ],
    "friendly_tags": [
      "family_friendly"
    ]
  },
  {
    "id": 13,
    "shelter_name": "Dewan Orang Ramai Bukit Selambau",
    "location": "Baling, Kedah",
    "latitude": 5.7711,
    "longitude": 100.5290,
    "benefits": [
      "Community hall",
      "Near main road"
    ],
    "drawbacks": [
      "Limited medical support"
    ],
    "friendly_tags": [
      "family_friendly"
    ]
  },
  {
    "id": 14,
    "shelter_name": "Dewan Masyarakat Sungai Petani",
    "location": "Sungai Petani, Kedah",
    "latitude": 5.6490,
    "longitude": 100.4954,
    "benefits": [
      "Large hall",
      "Sanitary facilities"
    ],
    "drawbacks": [
      "May exceed capacity in major floods"
    ],
    "friendly_tags": [
      "family_friendly",
      "kid_friendly"
    ]
  },
  {
    "id": 15,
    "shelter_name": "Dewan Orang Ramai Bagan Serai",
    "location": "Bagan Serai, Perak",
    "latitude": 5.0468,
    "longitude": 100.5550,
    "benefits": [
      "Community space",
      "Near shops"
    ],
    "drawbacks": [
      "Limited parking"
    ],
    "friendly_tags": [
      "family_friendly"
    ]
  },
  {
    "id": 16,
    "shelter_name": "Dewan Masyarakat Taiping",
    "location": "Taiping, Perak",
    "latitude": 4.8520,
    "longitude": 100.7375,
    "benefits": [
      "Large hall",
      "Used previously as PPS"
    ],
    "drawbacks": [
      "Low lighting in some areas"
    ],
    "friendly_tags": [
      "family_friendly",
      "kid_friendly"
    ]
  },
  {
    "id": 17,
    "shelter_name": "Balai Raya Kampung Permatang",
    "location": "Seberang Perai, Penang",
    "latitude": 5.3529,
    "longitude": 100.4769,
    "benefits": [
      "Local community hall",
      "Easy access for residents"
    ],
    "drawbacks": [
      "Small hall"
    ],
    "friendly_tags": [
      "family_friendly"
    ]
  },
  {
    "id": 18,
    "shelter_name": "Dewan Komuniti Taman Ria",
    "location": "Butterworth, Penang",
    "latitude": 5.3950,
    "longitude": 100.3700,
    "benefits": [
      "Indoor hall",
      "Near main roads"
    ],
    "drawbacks": [
      "Limited toilets"
    ],
    "friendly_tags": [
      "family_friendly"
    ]
  },
  {
    "id": 19,
    "shelter_name": "Dewan Serbaguna Taman Seri",
    "location": "Kepong, Kuala Lumpur (northern KL)",
    "latitude": 3.2200,
    "longitude": 101.6500,
    "benefits": [
      "Community hall",
      "Accessible by public transit"
    ],
    "drawbacks": [
      "May be crowded"
    ],
    "friendly_tags": [
      "family_friendly",
      "OKU_friendly"
    ]
  },
  {
    "id": 20,
    "shelter_name": "Dewan Orang Ramai Kota Bharu",
    "location": "Kota Bharu, Kelantan",
    "latitude": 6.1333,
    "longitude": 102.2435,
    "benefits": [
      "Large municipal hall",
      "Nearby services"
    ],
    "drawbacks": [
      "Can be used for official events"
    ],
    "friendly_tags": [
      "family_friendly",
      "kid_friendly"
    ]
  },
  {
    "id": 21,
    "shelter_name": "Dewan Serbaguna Tanah Merah",
    "location": "Tanah Merah, Kelantan",
    "latitude": 5.8086,
    "longitude": 102.1671,
    "benefits": [
      "Community hall",
      "Used previously as PPS"
    ],
    "drawbacks": [
      "Limited capacity"
    ],
    "friendly_tags": [
      "family_friendly"
    ]
  },
  {
    "id": 22,
    "shelter_name": "Dewan Komuniti Jerantut",
    "location": "Jerantut, Pahang",
    "latitude": 3.9758,
    "longitude": 102.3637,
    "benefits": [
      "Local hall",
      "Good road access"
    ],
    "drawbacks": [
      "Few toilets"
    ],
    "friendly_tags": [
      "family_friendly"
    ]
  },
  {
    "id": 23,
    "shelter_name": "Dewan Serbaguna Bandaraya Kota Kinabalu (example PPS venue)",
    "location": "Kota Kinabalu, Sabah",
    "latitude": 5.9804,
    "longitude": 116.0735,
    "benefits": [
      "Large urban hall",
      "Close to medical facilities"
    ],
    "drawbacks": [
      "Can be busy during peak events"
    ],
    "friendly_tags": [
      "family_friendly",
      "accessible"
    ]
  },
  {
    "id": 24,
    "shelter_name": "Dewan Serbaguna Sandakan",
    "location": "Sandakan, Sabah",
    "latitude": 5.8403,
    "longitude": 118.1170,
    "benefits": [
      "Large hall",
      "Used as PPS in past"
    ],
    "drawbacks": [
      "Weak signal in some corners"
    ],
    "friendly_tags": [
      "family_friendly"
    ]
  },
  {
    "id": 25,
    "shelter_name": "Dewan Suarah Sibu",
    "location": "Sibu, Sarawak",
    "latitude": 2.2872,
    "longitude": 111.8259,
    "benefits": [
      "Large community space",
      "Nearby medical desk"
    ],
    "drawbacks": [
      "Small parking area"
    ],
    "friendly_tags": [
      "family_friendly",
      "kid_friendly"
    ]
  },
  {
    "id": 26,
    "shelter_name": "Dewan Masyarakat Kuching",
    "location": "Kuching, Sarawak",
    "latitude": 1.5533,
    "longitude": 110.3592,
    "benefits": [
      "Good airflow",
      "Sanitary facilities"
    ],
    "drawbacks": [
      "Small hall in some sections"
    ],
    "friendly_tags": [
      "family_friendly",
      "OKU_friendly"
    ]
  },
  {
    "id": 27,
    "shelter_name": "Dewan Serbaguna Batu Pahat",
    "location": "Batu Pahat, Johor",
    "latitude": 1.8542,
    "longitude": 102.9310,
    "benefits": [
      "Large hall",
      "Kitchen facilities nearby"
    ],
    "drawbacks": [
      "Limited parking"
    ],
    "friendly_tags": [
      "family_friendly",
      "kid_friendly"
    ]
  },
  {
    "id": 28,
    "shelter_name": "Dewan Komuniti Muar",
    "location": "Muar, Johor",
    "latitude": 2.0449,
    "longitude": 102.5615,
    "benefits": [
      "Community hall",
      "Close to shops"
    ],
    "drawbacks": [
      "Crowded in major events"
    ],
    "friendly_tags": [
      "family_friendly"
    ]
  },
  {
    "id": 29,
    "shelter_name": "Dewan Serbaguna Johor Bahru",
    "location": "Johor Bahru, Johor",
    "latitude": 1.4927,
    "longitude": 103.7414,
    "benefits": [
      "Large urban hall",
      "Easy access to transport"
    ],
    "drawbacks": [
      "May be used for civic events"
    ],
    "friendly_tags": [
      "family_friendly",
      "accessible"
    ]
  },
  {
    "id": 30,
    "shelter_name": "Dewan Rakyat Seremban / Dewan Serbaguna",
    "location": "Seremban, Negeri Sembilan",
    "latitude": 2.7294,
    "longitude": 101.9386,
    "benefits": [
      "Large hall",
      "Near town amenities"
    ],
    "drawbacks": [
      "Limited parking"
    ],
    "friendly_tags": [
      "family_friendly",
      "kid_friendly"
    ]
  },
  {
    "id": 31,
    "shelter_name": "Dewan Orang Ramai Port Dickson",
    "location": "Port Dickson, Negeri Sembilan",
    "latitude": 2.5236,
    "longitude": 101.8556,
    "benefits": [
      "Coastal town hall",
      "Used in past as PPS"
    ],
    "drawbacks": [
      "Limited parking"
    ],
    "friendly_tags": [
      "family_friendly"
    ]
  },
  {
    "id": 32,
    "shelter_name": "Dewan Serbaguna Banting",
    "location": "Banting, Selangor",
    "latitude": 2.8133,
    "longitude": 101.5402,
    "benefits": [
      "Community hall",
      "Close to residential areas"
    ],
    "drawbacks": [
      "Few toilets"
    ],
    "friendly_tags": [
      "family_friendly",
      "pet_friendly"
    ]
  },
  {
    "id": 33,
    "shelter_name": "Dewan Serbaguna Puchong",
    "location": "Puchong, Selangor",
    "latitude": 3.0327,
    "longitude": 101.6067,
    "benefits": [
      "Large hall",
      "Sanitary facilities"
    ],
    "drawbacks": [
      "Hot at noon"
    ],
    "friendly_tags": [
      "family_friendly",
      "OKU_friendly"
    ]
  },
  {
    "id": 34,
    "shelter_name": "Dewan Orang Ramai Rawang",
    "location": "Rawang, Selangor",
    "latitude": 3.3000,
    "longitude": 101.5330,
    "benefits": [
      "Community hall",
      "Nearby shops"
    ],
    "drawbacks": [
      "Low lighting"
    ],
    "friendly_tags": [
      "family_friendly"
    ]
  },
  {
    "id": 35,
    "shelter_name": "Dewan Serbaguna Shah Alam (district hall)",
    "location": "Shah Alam, Selangor",
    "latitude": 3.0738,
    "longitude": 101.5183,
    "benefits": [
      "Large municipal hall",
      "Good access to services"
    ],
    "drawbacks": [
      "Weak signal in some areas"
    ],
    "friendly_tags": [
      "family_friendly",
      "OKU_friendly"
    ]
  },
  {
    "id": 36,
    "shelter_name": "Dewan Komuniti Cyberjaya",
    "location": "Cyberjaya, Selangor",
    "latitude": 2.9213,
    "longitude": 101.6550,
    "benefits": [
      "Large hall",
      "Near medical services"
    ],
    "drawbacks": [
      "Limited parking"
    ],
    "friendly_tags": [
      "family_friendly",
      "pet_friendly"
    ]
  },
  {
    "id": 37,
    "shelter_name": "Balai Raya Taman Merdeka",
    "location": "Kuala Lumpur suburb",
    "latitude": 3.1600,
    "longitude": 101.6800,
    "benefits": [
      "Local hall",
      "Accessible for neighbourhood"
    ],
    "drawbacks": [
      "Small capacity"
    ],
    "friendly_tags": [
      "family_friendly"
    ]
  },
  {
    "id": 38,
    "shelter_name": "Dewan Serbaguna Tanah Merah Selatan",
    "location": "Kuala Terengganu (southern suburbs), Terengganu",
    "latitude": 5.3000,
    "longitude": 103.1200,
    "benefits": [
      "Indoor space",
      "Used as PPS previously"
    ],
    "drawbacks": [
      "Limited medical assistance on site"
    ],
    "friendly_tags": [
      "family_friendly"
    ]
  },
  {
    "id": 39,
    "shelter_name": "Dewan Orang Ramai Kampung Baru (coastal)",
    "location": "Kuala Lumpur / Klang River area",
    "latitude": 3.0500,
    "longitude": 101.4500,
    "benefits": [
      "Easy for nearby residents",
      "Simple facilities"
    ],
    "drawbacks": [
      "Prone to crowding"
    ],
    "friendly_tags": [
      "family_friendly"
    ]
  },
  {
    "id": 40,
    "shelter_name": "Dewan Serbaguna Labuan",
    "location": "Labuan",
    "latitude": 5.2833,
    "longitude": 115.2333,
    "benefits": [
      "Island hall",
      "Good airflow"
    ],
    "drawbacks": [
      "Limited parking"
    ],
    "friendly_tags": [
      "family_friendly",
      "OKU_friendly"
    ]
  }
]
